{"type":"FeatureCollection",
"features":[
{"type":"Feature","properties":{"Location":"Brighouse Railway Station Westbound","Town":"Brighouse","Description ":"3 Lockers","latitude":"53.6980959","longitude":"-1.7790804"},"geometry":{"type":"Point","coordinates":[-1.77908,53.698096]}},{"type":"Feature","properties":{"Location":"Brighouse Sainsbury's","Town":"Brighouse","Description ":"4 Stands","latitude":"53.7010035","longitude":"-1.7783716"},"geometry":{"type":"Point","coordinates":[-1.778372,53.701003]}},{"type":"Feature","properties":{"Location":"Brighouse Hangram Street","Town":"Brighouse","Description ":"1 Stand","latitude":"53.7029211","longitude":"-1.7793828"},"geometry":{"type":"Point","coordinates":[-1.779383,53.702921]}},{"type":"Feature","properties":{"Location":"Brighouse Swimming Pool","Town":"Brighouse","Description ":"5 Stands & Shelter","latitude":"53.7075465","longitude":"-1.7793842"},"geometry":{"type":"Point","coordinates":[-1.779384,53.707546]}},{"type":"Feature","properties":{"Location":"Brighouse Owl Ings Car Park","Town":"Brighouse","Description ":"5 Stands & Shelter","latitude":"53.7011821","longitude":"-1.783504"},"geometry":{"type":"Point","coordinates":[-1.783504,53.701182]}},{"type":"Feature","properties":{"Location":"Elland Morrisons Lower Car park","Town":"Elland ","Description ":"10 Stands","latitude":"53.6875807","longitude":"-1.8357843"},"geometry":{"type":"Point","coordinates":[-1.835784,53.687581]}},{"type":"Feature","properties":{"Location":"Elland Morrisons Briggate entrance","Town":"Elland ","Description ":"9 Stands & 6 Bikeaway lockers","latitude":"53.687047","longitude":"-1.8366399"},"geometry":{"type":"Point","coordinates":[-1.83664,53.687047]}},{"type":"Feature","properties":{"Location":"Elland Timber Street","Town":"Elland ","Description ":"2 Stands","latitude":"53.6847795","longitude":"-1.8366104"},"geometry":{"type":"Point","coordinates":[-1.83661,53.684779]}},{"type":"Feature","properties":{"Location":"Elland Coronation Street Car park","Town":"Elland ","Description ":"5 Stands & Smashed Shelter","latitude":"53.685762","longitude":"-1.8380105"},"geometry":{"type":"Point","coordinates":[-1.83801,53.685762]}},{"type":"Feature","properties":{"Location":"Elland Brooksbank School","Town":"Elland ","Description ":"5 Stands & Shelter","latitude":"53.6812903","longitude":"-1.8476182"},"geometry":{"type":"Point","coordinates":[-1.847618,53.68129]}},{"type":"Feature","properties":{"Location":"Elland Brooksbank School","Town":"Elland ","Description ":"2 Stands","latitude":"53.6808145","longitude":"-1.8480018"},"geometry":{"type":"Point","coordinates":[-1.848002,53.680814]}},{"type":"Feature","properties":{"Location":"Halifax Swimming Pool","Town":"Halifax","Description ":"5 Stands","latitude":"53.7188378","longitude":"-1.8598759"},"geometry":{"type":"Point","coordinates":[-1.859876,53.718838]}},{"type":"Feature","properties":{"Location":"Halifax Railway Station","Town":"Halifax","Description ":"3 Lockers, 7 stands & Shelter","latitude":"53.7212217","longitude":"-1.8538919"},"geometry":{"type":"Point","coordinates":[-1.853892,53.721222]}},{"type":"Feature","properties":{"Location":"Halifax Horton Street","Town":"Halifax","Description ":"2 Standsï¿½","latitude":"53.7210614","longitude":"-1.8565392"},"geometry":{"type":"Point","coordinates":[-1.856539,53.721061]}},{"type":"Feature","properties":{"Location":"Halifax Woolshops Car Park","Town":"Halifax","Description ":"5 Stands","latitude":"53.7232626","longitude":"-1.8565821"},"geometry":{"type":"Point","coordinates":[-1.856582,53.723263]}},{"type":"Feature","properties":{"Location":"Halifax Piece Hall","Town":"Halifax","Description ":"4 Stands","latitude":"53.7224374","longitude":"-1.857183"},"geometry":{"type":"Point","coordinates":[-1.857183,53.722437]}},{"type":"Feature","properties":{"Location":"Halifax Sainsbury's Car Park","Town":"Halifax","Description ":"15 Stands","latitude":"53.7262001","longitude":"-1.8558633"},"geometry":{"type":"Point","coordinates":[-1.855863,53.7262]}},{"type":"Feature","properties":{"Location":"Halifax North Bridge Leisure Centre","Town":"Halifax","Description ":"4 Stands & Shelter","latitude":"53.7270919","longitude":"-1.85861"},"geometry":{"type":"Point","coordinates":[-1.85861,53.727092]}},{"type":"Feature","properties":{"Location":"Halifax Bowling Mill","Town":"Halifax","Description ":"Multistand 20+","latitude":"53.7281662","longitude":"-1.862644"},"geometry":{"type":"Point","coordinates":[-1.862644,53.728166]}},{"type":"Feature","properties":{"Location":"Halifax Fearnley Mill","Town":"Halifax","Description ":"3 Stands","latitude":"53.7278044","longitude":"-1.8609327"},"geometry":{"type":"Point","coordinates":[-1.860933,53.727804]}},{"type":"Feature","properties":{"Location":"Halifax Broad Street Plaza, North Parade","Town":"Halifax","Description ":"10 Stands","latitude":"53.7257415","longitude":"-1.8609462"},"geometry":{"type":"Point","coordinates":[-1.860946,53.725741]}},{"type":"Feature","properties":{"Location":"Halifax Broad Street Plaza Northgate","Town":"Halifax","Description ":"2 Stands","latitude":"53.725478","longitude":"-1.8597418"},"geometry":{"type":"Point","coordinates":[-1.859742,53.725478]}},{"type":"Feature","properties":{"Location":"Halifax Waterhouse Street","Town":"Halifax","Description ":"4 Stands","latitude":"53.7234832","longitude":"-1.8616595"},"geometry":{"type":"Point","coordinates":[-1.86166,53.723483]}},{"type":"Feature","properties":{"Location":"Halifax Commercial Street","Town":"Halifax","Description ":"4 Stands","latitude":"53.7211645","longitude":"-1.8612358"},"geometry":{"type":"Point","coordinates":[-1.861236,53.721165]}},{"type":"Feature","properties":{"Location":"Halifax George Square","Town":"Halifax","Description ":"5 Stands ","latitude":"53.7225198","longitude":"-1.8618044"},"geometry":{"type":"Point","coordinates":[-1.861804,53.72252]}},{"type":"Feature","properties":{"Location":"Halifax Westgate Arcade, Southgate","Town":"Halifax","Description ":"6 Stands","latitude":"53.7215121","longitude":"-1.8598142"},"geometry":{"type":"Point","coordinates":[-1.859814,53.721512]}},{"type":"Feature","properties":{"Location":"Halifax Westgate Arcade, Market Street","Town":"Halifax","Description ":"6 Stands","latitude":"53.7217311","longitude":"-1.858449"},"geometry":{"type":"Point","coordinates":[-1.858449,53.721731]}},{"type":"Feature","properties":{"Location":"Halifax Russell Street","Town":"Halifax","Description ":"2 Stands","latitude":"53.7230111","longitude":"-1.8592228"},"geometry":{"type":"Point","coordinates":[-1.859223,53.723011]}},{"type":"Feature","properties":{"Location":"Halifax Northgate Bus Station","Town":"Halifax","Description ":"4 Stands","latitude":"53.7244164","longitude":"-1.8594468"},"geometry":{"type":"Point","coordinates":[-1.859447,53.724416]}},{"type":"Feature","properties":{"Location":"Halifax Elsie Whitley Centre","Town":"Halifax","Description ":"6 Lockers 3 Stands (9)","latitude":"53.7208995","longitude":"-1.8787587"},"geometry":{"type":"Point","coordinates":[-1.878759,53.7209]}},{"type":"Feature","properties":{"Location":"Halifax Tesco Kings Cross","Town":"Halifax","Description ":"3 Stands","latitude":"53.7149886","longitude":"-1.877667"},"geometry":{"type":"Point","coordinates":[-1.877667,53.714989]}},{"type":"Feature","properties":{"Location":"Halifax Kings Cross/Haugh Shaw Rd Car Park","Town":"Halifax","Description ":"5 Stands ","latitude":"53.7150379","longitude":"-1.8802204"},"geometry":{"type":"Point","coordinates":[-1.88022,53.715038]}},{"type":"Feature","properties":{"Location":"Halifax Kings Cross Library","Town":"Halifax","Description ":"5 Custom Stands","latitude":"53.7145902","longitude":"-1.8817198"},"geometry":{"type":"Point","coordinates":[-1.88172,53.71459]}},{"type":"Feature","properties":{"Location":"Sowerby Bridge Railway Station","Town":"Sowerby Bridge","Description ":"5 Lockers","latitude":"53.7077672","longitude":"-1.9071499"},"geometry":{"type":"Point","coordinates":[-1.90715,53.707767]}},{"type":"Feature","properties":{"Location":"Sowerby Bridge Railway Station Car Park","Town":"Sowerby Bridge","Description ":"5 Stands & shelter","latitude":"53.7077402","longitude":"-1.9064068"},"geometry":{"type":"Point","coordinates":[-1.906407,53.70774]}},{"type":"Feature","properties":{"Location":"Sowerby Bridge Leisure Centre","Town":"Sowerby Bridge","Description ":"8 Stands","latitude":"53.7073608","longitude":"-1.9120288"},"geometry":{"type":"Point","coordinates":[-1.912029,53.707361]}},{"type":"Feature","properties":{"Location":"Sowerby Bridge Tesco Car Park","Town":"Sowerby Bridge","Description ":"6 Stands","latitude":"53.7077894","longitude":"-1.9146788"},"geometry":{"type":"Point","coordinates":[-1.914679,53.707789]}},{"type":"Feature","properties":{"Location":"Sowerby Bridge Happy Days cycle shop, Town Hall St","Town":"Sowerby Bridge","Description ":"3 Stands for 6 bikes","latitude":"53.70849","longitude":"-1.91118"},"geometry":{"type":"Point","coordinates":[-1.91118,53.70849]}},{"type":"Feature","properties":{"Location":"Sowerby Bridge Cricket Club","Town":"Sowerby Bridge","Description ":"3 Stands for 6 bikes","latitude":"53.70838","longitude":"-1.91594"},"geometry":{"type":"Point","coordinates":[-1.91594,53.70838]}},{"type":"Feature","properties":{"Location":"Sowerby Bridge West st, cafe","Town":"Sowerby Bridge","Description ":"1 Stand for 2 bikes","latitude":"53.70902","longitude":"-1.91089"},"geometry":{"type":"Point","coordinates":[-1.91089,53.70902]}},{"type":"Feature","properties":{"Location":"Mytholmroyd Railway station","Town":"Mythlomroyd","Description ":"2 Eastbound","latitude":"53.7290517","longitude":"-1.9813103"},"geometry":{"type":"Point","coordinates":[-1.98131,53.729052]}},{"type":"Feature","properties":{"Location":"Mytholmroyd Railway station","Town":"Mythlomroyd","Description ":"4 Stands West bound","latitude":"53.7291405","longitude":"-1.9828418"},"geometry":{"type":"Point","coordinates":[-1.982842,53.72914]}},{"type":"Feature","properties":{"Location":"Mytholmroyd Church Street","Town":"Mythlomroyd","Description ":"2 Stands","latitude":"53.7301275","longitude":"-1.9823295"},"geometry":{"type":"Point","coordinates":[-1.98233,53.730128]}},{"type":"Feature","properties":{"Location":"Mytholmroyd Health Centre","Town":"Mythlomroyd","Description ":"3 Stands for 6 bikes","latitude":"53.73102","longitude":"-1.98225"},"geometry":{"type":"Point","coordinates":[-1.98225,53.73102]}},{"type":"Feature","properties":{"Location":"Mytholmroyd Joe's Cafe","Town":"Mythlomroyd","Description ":"1 Stand for 1 bike","latitude":"53.7296","longitude":"-1.98268"},"geometry":{"type":"Point","coordinates":[-1.98268,53.7296]}},{"type":"Feature","properties":{"Location":"Mytholmroyd St Michaels Church","Town":"Mythlomroyd","Description ":"1 Stand for 2 bikes","latitude":"53.73001","longitude":"-1.982"},"geometry":{"type":"Point","coordinates":[-1.982,53.73001]}},{"type":"Feature","properties":{"Location":"Mytholmroyd Burnley Rd/B6138 junction at bridge","Town":"Mythlomroyd","Description ":"2 Stands for 4 bikes","latitude":"53.73001","longitude":"-1.982"},"geometry":{"type":"Point","coordinates":[-1.982,53.73001]}},{"type":"Feature","properties":{"Location":"Hebden Bridge Railway Station Car Park","Town":"Hebden Bridge","Description ":"8 Stands ","latitude":"53.7380463","longitude":"-2.00946"},"geometry":{"type":"Point","coordinates":[-2.00946,53.738046]}},{"type":"Feature","properties":{"Location":"Hebden Bridge Railway Station Car park","Town":"Hebden Bridge","Description ":" 8 Stands & shelter","latitude":"53.7378528","longitude":"-2.0087117"},"geometry":{"type":"Point","coordinates":[-2.008712,53.737853]}},{"type":"Feature","properties":{"Location":"Hebden Bridge Railway station Platform 2","Town":"Hebden Bridge","Description ":"3 stands","latitude":"53.7376481","longitude":"-2.0087036"},"geometry":{"type":"Point","coordinates":[-2.008704,53.737648]}},{"type":"Feature","properties":{"Location":"Hebden Bridge Burnley Road","Town":"Hebden Bridge","Description ":"2 Stands","latitude":"53.740978","longitude":"-2.013588"},"geometry":{"type":"Point","coordinates":[-2.013588,53.740978]}},{"type":"Feature","properties":{"Location":"Hebden Bridge Bridge Gate","Town":"Hebden Bridge","Description ":"2 Lockers","latitude":"53.7415063","longitude":"-2.0139635"},"geometry":{"type":"Point","coordinates":[-2.013964,53.741506]}},{"type":"Feature","properties":{"Location":"Hebden Bridge St Georges Square","Town":"Hebden Bridge","Description ":"2 Stands for 4 bikes","latitude":"53.74213","longitude":"-2.01225"},"geometry":{"type":"Point","coordinates":[-2.01225,53.74213]}},{"type":"Feature","properties":{"Location":"Hebden Bridge Visitor Centre","Town":"Hebden Bridge","Description ":"4 Stands for 8 bikes","latitude":"53.74034","longitude":"-2.01219"},"geometry":{"type":"Point","coordinates":[-2.01219,53.74034]}},{"type":"Feature","properties":{"Location":"Hebden Bridge Memorial Gardens","Town":"Hebden Bridge","Description ":"2 Stands for 2 bikes","latitude":"53.74115","longitude":"-2.01347"},"geometry":{"type":"Point","coordinates":[-2.01347,53.74115]}},{"type":"Feature","properties":{"Location":"Hebden Bridge Calder Holmes Park, cafe","Town":"Hebden Bridge","Description ":"4 Stands for 8 bikes","latitude":"53.74048","longitude":"-2.01409"},"geometry":{"type":"Point","coordinates":[-2.01409,53.74048]}},{"type":"Feature","properties":{"Location":"Hebden Bridge Co op","Town":"Hebden Bridge","Description ":"1 Stand for 1 bike","latitude":"53.74138","longitude":"-2.01698"},"geometry":{"type":"Point","coordinates":[-2.01698,53.74138]}},{"type":"Feature","properties":{"Location":"Hebden Bridge Blazing Saddles","Town":"Hebden Bridge","Description ":"1 Stand for 1 bike","latitude":"53.74107","longitude":"-2.01422"},"geometry":{"type":"Point","coordinates":[-2.01422,53.74107]}},{"type":"Feature","properties":{"Location":"Todmorden Swimming Pool","Town":"Todmorden ","Description ":"5 Stands","latitude":"53.7201932","longitude":"-2.1099544"},"geometry":{"type":"Point","coordinates":[-2.109954,53.720193]}},{"type":"Feature","properties":{"Location":"Todmorden Community College","Town":"Todmorden ","Description ":"5 Stands & Shelter","latitude":"53.7161712","longitude":"-2.0977932"},"geometry":{"type":"Point","coordinates":[-2.097793,53.716171]}},{"type":"Feature","properties":{"Location":"Todmorden Bridge Street","Town":"Todmorden ","Description ":"2 Stands","latitude":"53.7141029","longitude":"-2.0974043"},"geometry":{"type":"Point","coordinates":[-2.097404,53.714103]}},{"type":"Feature","properties":{"Location":"Todmorden Health Centre","Town":"Todmorden ","Description ":"6 Stands","latitude":"53.713841","longitude":"-2.0923376"},"geometry":{"type":"Point","coordinates":[-2.092338,53.713841]}},{"type":"Feature","properties":{"Location":"Todmorden Railway Station","Town":"Todmorden ","Description ":" 5 Stands 3 Lockers","latitude":"53.7135664","longitude":"-2.1000597"},"geometry":{"type":"Point","coordinates":[-2.10006,53.713566]}},{"type":"Feature","properties":{"Location":"Todmorden Morrisons Super Market","Town":"Todmorden ","Description ":"4 Stands","latitude":"53.7108407","longitude":"-2.101205"},"geometry":{"type":"Point","coordinates":[-2.101205,53.710841]}},{"type":"Feature","properties":{"Location":"Todmorden Centre Vale Park, nxt to play park","Town":"Todmorden ","Description ":"4 Stands for 8 bikes","latitude":"53.71657","longitude":"-2.09845"},"geometry":{"type":"Point","coordinates":[-2.09845,53.71657]}},{"type":"Feature","properties":{"Location":"Todmorden Park End cafe, Burnley Rd","Town":"Todmorden ","Description ":"4 Stands for 8 bikes","latitude":"53.71849","longitude":"-2.10104"},"geometry":{"type":"Point","coordinates":[-2.10104,53.71849]}},{"type":"Feature","properties":{"Location":"Todmorden Fielden Square","Town":"Todmorden ","Description ":"1 Stand for 2 bikes","latitude":"53.71211","longitude":"-2.09859"},"geometry":{"type":"Point","coordinates":[-2.09859,53.71211]}},{"type":"Feature","properties":{"Location":"Todmorden Water St roundabout","Town":"Todmorden ","Description ":"3 Stands for 6 bikes","latitude":"53.71293","longitude":"-2.09777"},"geometry":{"type":"Point","coordinates":[-2.09777,53.71293]}},{"type":"Feature","properties":{"Location":"Todmorden Bramshe Square","Town":"Todmorden ","Description ":"2 Stands for 4 bikes","latitude":"53.71398","longitude":"-2.09666"},"geometry":{"type":"Point","coordinates":[-2.09666,53.71398]}},{"type":"Feature","properties":{"Location":"Walsden Railway Station","Town":"Walsden","Description ":"5 Stands & Shelter","latitude":"53.6961443","longitude":"-2.1045631"},"geometry":{"type":"Point","coordinates":[-2.104563,53.696144]}}]}